[
  {
    "name": "Mister Subs Berlin",
    "slug": "mister-subs-berlin",
    "ue_id": "ZdItCDWQXv2w1jUimuvFNw",
    "url": "https://www.ubereats.com/de/store/mister-subs-berlin/ZdItCDWQXv2w1jUimuvFNw",
    "lat": 52.4795,
    "lon": 13.4418
  },
  {
    "name": "MOTO Kreuzberg",
    "slug": "moto-kreuzberg",
    "ue_id": "hyEbBhl9TKe5Dy21AQAw-w",
    "url": "https://www.ubereats.com/de/store/moto-kreuzberg/hyEbBhl9TKe5Dy21AQAw-w",
    "lat": 52.5041,
    "lon": 13.3875
  },
  {
    "name": "Sushikoo Mariendorf",
    "slug": "sushikoo-mariendorf",
    "ue_id": "8UCz4A2qUL-qw8sh-NeJLA",
    "url": "https://www.ubereats.com/de/store/sushikoo-mariendorf/8UCz4A2qUL-qw8sh-NeJLA",
    "lat": 52.4473,
    "lon": 13.3857
  },
  {
    "name": "Lokman",
    "slug": "lokman",
    "ue_id": "t2KDELMUVtyg2AbH5ybOcg",
    "url": "https://www.ubereats.com/de/store/lokman/t2KDELMUVtyg2AbH5ybOcg",
    "lat": 52.5412,
    "lon": 13.3703
  },
  {
    "name": "Hühnerwald Schöneberg",
    "slug": "huhnerwald-schoneberg",
    "ue_id": "6nrR3A8DX0a2-uSGPNX8Bg",
    "url": "https://www.ubereats.com/de/store/huhnerwald-schoneberg/6nrR3A8DX0a2-uSGPNX8Bg",
    "lat": 52.4812,
    "lon": 13.3473
  },
  {
    "name": "HIMMEL 8",
    "slug": "himmel-8",
    "ue_id": "E-3iAeMbQ8yDNTefAAilzQ",
    "url": "https://www.ubereats.com/de/store/himmel-8/E-3iAeMbQ8yDNTefAAilzQ",
    "lat": 52.5011,
    "lon": 13.4119
  },
  {
    "name": "PAPALAPAP I HEALTHY FOOD",
    "slug": "papalapap-i-healthy-food",
    "ue_id": "TQoOKtlfVnSPC9EAS08TQg",
    "url": "https://www.ubereats.com/de/store/papalapap-i-healthy-food/TQoOKtlfVnSPC9EAS08TQg",
    "lat": 52.4901,
    "lon": 13.3831
  },
  {
    "name": "Sushi May",
    "slug": "sushi-may",
    "ue_id": "ppkF3XOqSJipyNpAYXgqvA",
    "url": "https://www.ubereats.com/de/store/sushi-may/ppkF3XOqSJipyNpAYXgqvA",
    "lat": 52.504,
    "lon": 13.3745
  },
  {
    "name": "Chicken Gang 🍗🍟Kreuzberg",
    "slug": "chicken-gang-kreuzberg",
    "ue_id": "hp9L-k-RWRuowVYi8lkwGA",
    "url": "https://www.ubereats.com/de/store/chicken-gang-kreuzberg/hp9L-k-RWRuowVYi8lkwGA",
    "lat": 52.4957,
    "lon": 13.3965
  },
  {
    "name": "Persepolis",
    "slug": "persepolis",
    "ue_id": "GVtIfn4VRQibqvsqHIcRGw",
    "url": "https://www.ubereats.com/de/store/persepolis/GVtIfn4VRQibqvsqHIcRGw",
    "lat": 52.5025,
    "lon": 13.3515
  },
  {
    "name": "BoGi Bowl I Halal I",
    "slug": "bogi-bowl-i-halal-i",
    "ue_id": "mwxkIIfLX0yKMwKJK9-lSg",
    "url": "https://www.ubereats.com/de/store/bogi-bowl-i-halal-i/mwxkIIfLX0yKMwKJK9-lSg",
    "lat": 52.4911,
    "lon": 13.3954
  },
  {
    "name": "RussischEssen",
    "slug": "russischessen",
    "ue_id": "0fm5W5-dSYeNawzIdvLREg",
    "url": "https://www.ubereats.com/de/store/russischessen/0fm5W5-dSYeNawzIdvLREg",
    "lat": 52.5023,
    "lon": 13.3593
  },
  {
    "name": "Cafe Peri Kumpir & Burger",
    "slug": "cafe-peri-kumpir-%26-burger",
    "ue_id": "VLkiW0S0XCGfErC_-QgOmA",
    "url": "https://www.ubereats.com/de/store/cafe-peri-kumpir-%26-burger/VLkiW0S0XCGfErC_-QgOmA",
    "lat": 52.4915,
    "lon": 13.3612
  },
  {
    "name": "Taj Mahal Haus II",
    "slug": "taj-mahal-haus-ii",
    "ue_id": "q9XRwz9nXqa89FGbXQFDwg",
    "url": "https://www.ubereats.com/de/store/taj-mahal-haus-ii/q9XRwz9nXqa89FGbXQFDwg",
    "lat": 52.5338,
    "lon": 13.593
  },
  {
    "name": "Funa Sushi Kreuzberg",
    "slug": "funa-sushi-kreuzberg",
    "ue_id": "ulcqq8agXtWrYOwClCaAPA",
    "url": "https://www.ubereats.com/de/store/funa-sushi-kreuzberg/ulcqq8agXtWrYOwClCaAPA",
    "lat": 52.4956,
    "lon": 13.3965
  },
  {
    "name": "OCAX DÖNER",
    "slug": "ocax-doner",
    "ue_id": "hWV6Ms52UmGda0053YWcGA",
    "url": "https://www.ubereats.com/de/store/ocax-doner/hWV6Ms52UmGda0053YWcGA",
    "lat": 52.5029,
    "lon": 13.4136
  },
  {
    "name": "Gym Cook Berlin",
    "slug": "gym-cook-berlin",
    "ue_id": "2_wz96cNX9WfAU98pBtOMA",
    "url": "https://www.ubereats.com/de/store/gym-cook-berlin/2_wz96cNX9WfAU98pBtOMA",
    "lat": 52.5125,
    "lon": 13.4181
  },
  {
    "name": "Amici Amici Sicilian Kitchen & Streetfood ",
    "slug": "amici-amici-sicilian-kitchen-%26-streetfood",
    "ue_id": "mzERmpIUVemCNApDQhqj-A",
    "url": "https://www.ubereats.com/de/store/amici-amici-sicilian-kitchen-%26-streetfood/mzERmpIUVemCNApDQhqj-A",
    "lat": 52.4871,
    "lon": 13.4226
  },
  {
    "name": "Domino's Berlin Kreuzberg Süd",
    "slug": "dominos-berlin-kreuzberg-sud",
    "ue_id": "Vl3Amw0SUeq64XofCIk90Q",
    "url": "https://www.ubereats.com/de/store/dominos-berlin-kreuzberg-sud/Vl3Amw0SUeq64XofCIk90Q",
    "lat": 52.4954,
    "lon": 13.398
  },
  {
    "name": "KFC Checkpoint Charlie",
    "slug": "kfc-checkpoint-charlie",
    "ue_id": "eK8SDEQMTd6RKBtdzrzjnw",
    "url": "https://www.ubereats.com/de/store/kfc-checkpoint-charlie/eK8SDEQMTd6RKBtdzrzjnw",
    "lat": 52.5076,
    "lon": 13.3908
  },
  {
    "name": "Mama Dut",
    "slug": "mama-dut",
    "ue_id": "i0ZhpGn0UeWqH37SvvddOw",
    "url": "https://www.ubereats.com/de/store/mama-dut/i0ZhpGn0UeWqH37SvvddOw",
    "lat": 52.4707,
    "lon": 13.3295
  },
  {
    "name": "Snack Stop Berlin",
    "slug": "snack-stop-berlin",
    "ue_id": "moe-9vT7WIiXuGtcYPWzvg",
    "url": "https://www.ubereats.com/de/store/snack-stop-berlin/moe-9vT7WIiXuGtcYPWzvg",
    "lat": 52.5105,
    "lon": 13.3904
  },
  {
    "name": "Noko Noko Bowls & Salate Berlin-Spittelmarkt",
    "slug": "noko-noko-bowls-%26-salate-berlin-spittelmarkt",
    "ue_id": "VDizxUzSWHeQfQAPqg9Dgw",
    "url": "https://www.ubereats.com/de/store/noko-noko-bowls-%26-salate-berlin-spittelmarkt/VDizxUzSWHeQfQAPqg9Dgw",
    "lat": 52.5086,
    "lon": 13.4052
  },
  {
    "name": "La Femme La.Macun und Pide",
    "slug": "la-femme-lamacun-und-pide-checkpoint-charlie",
    "ue_id": "hVIAu4f_Vs2u2vAuu7Ppxw",
    "url": "https://www.ubereats.com/de/store/la-femme-lamacun-und-pide-checkpoint-charlie/hVIAu4f_Vs2u2vAuu7Ppxw",
    "lat": 52.5087,
    "lon": 13.39
  },
  {
    "name": "Bunter Panda Nudeln & Tee",
    "slug": "bunter-panda-nudeln-%26-tee",
    "ue_id": "P6JC7CvsUvKbx7MPess_Yg",
    "url": "https://www.ubereats.com/de/store/bunter-panda-nudeln-%26-tee/P6JC7CvsUvKbx7MPess_Yg",
    "lat": 52.4851,
    "lon": 13.3546
  },
  {
    "name": "McDonald's Checkpoint Charlie",
    "slug": "mcdonalds-checkpoint-charlie",
    "ue_id": "CrdWGRoOU8qiufOUTfFzeA",
    "url": "https://www.ubereats.com/de/store/mcdonalds-checkpoint-charlie/CrdWGRoOU8qiufOUTfFzeA",
    "lat": 52.5073,
    "lon": 13.3902
  },
  {
    "name": "Burgermeister Mehringdamm",
    "slug": "burgermeister-mehringdamm",
    "ue_id": "6jMZIKqFXu68vSx7MkYx4Q",
    "url": "https://www.ubereats.com/de/store/burgermeister-mehringdamm/6jMZIKqFXu68vSx7MkYx4Q",
    "lat": 52.4925,
    "lon": 13.3879
  },
  {
    "name": "Saiko Sushi Kreuzberg",
    "slug": "saiko-sushi-kreuzberg",
    "ue_id": "sEze8KSHSEqr1Znh2mcyFA",
    "url": "https://www.ubereats.com/de/store/saiko-sushi-kreuzberg/sEze8KSHSEqr1Znh2mcyFA",
    "lat": 52.4931,
    "lon": 13.3826
  },
  {
    "name": "Five Guys Berlin Potsdamer Platz",
    "slug": "five-guys-berlin-potsdamer-platz",
    "ue_id": "PeS-353TV22YeAm1i47CHg",
    "url": "https://www.ubereats.com/de/store/five-guys-berlin-potsdamer-platz/PeS-353TV22YeAm1i47CHg",
    "lat": 52.5085,
    "lon": 13.3756
  },
  {
    "name": "WORLD OF PIZZA Berlin Mitte",
    "slug": "world-of-pizza-berlin-mitte",
    "ue_id": "-BjdTZyCWVqtHyjVu62wvw",
    "url": "https://www.ubereats.com/de/store/world-of-pizza-berlin-mitte/-BjdTZyCWVqtHyjVu62wvw",
    "lat": 52.5086,
    "lon": 13.4052
  },
  {
    "name": "Bundesburger",
    "slug": "bundesburger",
    "ue_id": "RSiprOAFTTesV5R28IolRw",
    "url": "https://www.ubereats.com/de/store/bundesburger/RSiprOAFTTesV5R28IolRw",
    "lat": 52.4926,
    "lon": 13.3311
  },
  {
    "name": " Oto Asiatische Küche.",
    "slug": "oto-asiatische-kuche",
    "ue_id": "8cwIhcM8U4uv51L61Z-iFA",
    "url": "https://www.ubereats.com/de/store/oto-asiatische-kuche/8cwIhcM8U4uv51L61Z-iFA",
    "lat": 52.4955,
    "lon": 13.4298
  },
  {
    "name": "Sushi Nari Berlin",
    "slug": "sushi-nari-berlin",
    "ue_id": "XbSbBqQwV0q1n36iIYuzlA",
    "url": "https://www.ubereats.com/de/store/sushi-nari-berlin/XbSbBqQwV0q1n36iIYuzlA",
    "lat": 52.5459,
    "lon": 13.3905
  },
  {
    "name": "Zey&Bek Köfteci",
    "slug": "zey%26bek-kofteci",
    "ue_id": "nTUCGD5NWBeKH3UK0O9v8A",
    "url": "https://www.ubereats.com/de/store/zey%26bek-kofteci/nTUCGD5NWBeKH3UK0O9v8A",
    "lat": 52.4683,
    "lon": 13.3853
  },
  {
    "name": "Curry 36 Mehringdamm",
    "slug": "curry-36-mehringdamm",
    "ue_id": "gVaL7qyTW_e1N0F6vVTUlw",
    "url": "https://www.ubereats.com/de/store/curry-36-mehringdamm/gVaL7qyTW_e1N0F6vVTUlw",
    "lat": 52.4935,
    "lon": 13.3877
  },
  {
    "name": "Prometeo",
    "slug": "prometeo",
    "ue_id": "OtDNpppITKKHJzEh_IZGDg",
    "url": "https://www.ubereats.com/de/store/prometeo/OtDNpppITKKHJzEh_IZGDg",
    "lat": 52.4939,
    "lon": 13.3623
  },
  {
    "name": "Da Dante Pizzeria",
    "slug": "da-dante-pizzeria",
    "ue_id": "3emmpczWRiuI8I5dkQsxJw",
    "url": "https://www.ubereats.com/de/store/da-dante-pizzeria/3emmpczWRiuI8I5dkQsxJw",
    "lat": 52.4878,
    "lon": 13.3576
  },
  {
    "name": "Sky Apotheke Kreuzberg",
    "slug": "sky-apotheke-kreuzberg-berlin",
    "ue_id": "WTsd5sVMWGaVpk87zjCJzA",
    "url": "https://www.ubereats.com/de/store/sky-apotheke-kreuzberg-berlin/WTsd5sVMWGaVpk87zjCJzA",
    "lat": 52.4897,
    "lon": 13.3889
  },
  {
    "name": "X-Berg Kebaphaus",
    "slug": "x-berg-kebaphaus",
    "ue_id": "-DpBg6svRWWYDU7zXB6TkA",
    "url": "https://www.ubereats.com/de/store/x-berg-kebaphaus/-DpBg6svRWWYDU7zXB6TkA",
    "lat": 52.4997,
    "lon": 13.3912
  },
  {
    "name": "Döner Date",
    "slug": "doner-date",
    "ue_id": "YLyNRNZwWMKeNW7fnU9wHg",
    "url": "https://www.ubereats.com/de/store/doner-date/YLyNRNZwWMKeNW7fnU9wHg",
    "lat": 52.4978,
    "lon": 13.3917
  },
  {
    "name": "Last Chance Kreuzberg",
    "slug": "last-chance-kreuzberg",
    "ue_id": "0wbXC-91XxKpopJQIPdWsA",
    "url": "https://www.ubereats.com/de/store/last-chance-kreuzberg/0wbXC-91XxKpopJQIPdWsA",
    "lat": 52.4895,
    "lon": 13.3937
  },
  {
    "name": "Al-Arz  Restaurant 🥗🫓",
    "slug": "al-arz-restaurant",
    "ue_id": "mZ010yMtWViVyrA73TwPmw",
    "url": "https://www.ubereats.com/de/store/al-arz-restaurant/mZ010yMtWViVyrA73TwPmw",
    "lat": 52.4907,
    "lon": 13.3871
  },
  {
    "name": "Pasam Baklava",
    "slug": "pasam-baklava",
    "ue_id": "umWxSrGuUa60U1JtoPwolw",
    "url": "https://www.ubereats.com/de/store/pasam-baklava/umWxSrGuUa60U1JtoPwolw",
    "lat": 52.4934,
    "lon": 13.366
  },
  {
    "name": "BUNWERK",
    "slug": "bunwerk",
    "ue_id": "T5cP8Z0QQpKalF-u_k-klw",
    "url": "https://www.ubereats.com/de/store/bunwerk/T5cP8Z0QQpKalF-u_k-klw",
    "lat": 52.4656,
    "lon": 13.3254
  },
  {
    "name": "7 Days Gemüse Kebab",
    "slug": "7-days-gemuse-kebab",
    "ue_id": "AwW52qt1XeGQFJVJpUF7Gw",
    "url": "https://www.ubereats.com/de/store/7-days-gemuse-kebab/AwW52qt1XeGQFJVJpUF7Gw",
    "lat": 52.4863,
    "lon": 13.3563
  },
  {
    "name": "Oh!myegg.",
    "slug": "oh%21myegg",
    "ue_id": "Rm-lYkk4UhSXlCjPMsDDJQ",
    "url": "https://www.ubereats.com/de/store/oh%21myegg/Rm-lYkk4UhSXlCjPMsDDJQ",
    "lat": 52.4942,
    "lon": 13.3449
  },
  {
    "name": "CRVSH",
    "slug": "crvsh",
    "ue_id": "gVJMeuARV5WXTILT55uQaw",
    "url": "https://www.ubereats.com/de/store/crvsh/gVJMeuARV5WXTILT55uQaw",
    "lat": 52.4942,
    "lon": 13.3448
  },
  {
    "name": "Studio Natura Gendarmenmarkt",
    "slug": "studio-natura-gendarmenmarkt",
    "ue_id": "9ZCr3ltVUBOyWpOCGFvzdg",
    "url": "https://www.ubereats.com/de/store/studio-natura-gendarmenmarkt/9ZCr3ltVUBOyWpOCGFvzdg",
    "lat": 52.5123,
    "lon": 13.3906
  },
  {
    "name": "Brammibal's Donuts",
    "slug": "brammibals-donuts-potsdamer-platz",
    "ue_id": "OXhWeMRnWGOBzUIVs2dlNw",
    "url": "https://www.ubereats.com/de/store/brammibals-donuts-potsdamer-platz/OXhWeMRnWGOBzUIVs2dlNw",
    "lat": 52.508,
    "lon": 13.3738
  },
  {
    "name": "Restaurant Has Mevlana",
    "slug": "restaurant-has-mevlana",
    "ue_id": "PkcBExM1VtO5ekFbS8VISw",
    "url": "https://www.ubereats.com/de/store/restaurant-has-mevlana/PkcBExM1VtO5ekFbS8VISw",
    "lat": 52.4878,
    "lon": 13.3576
  },
  {
    "name": "City Market",
    "slug": "city-market",
    "ue_id": "Kyzhq8gKVfWQcaM_ldDhFA",
    "url": "https://www.ubereats.com/de/store/city-market/Kyzhq8gKVfWQcaM_ldDhFA",
    "lat": 52.4851,
    "lon": 13.3522
  },
  {
    "name": "Pelmennaia",
    "slug": "pelmennaia",
    "ue_id": "yGC2J0vYV7SzjG6y2hxFCw",
    "url": "https://www.ubereats.com/de/store/pelmennaia/yGC2J0vYV7SzjG6y2hxFCw",
    "lat": 52.5103,
    "lon": 13.4084
  },
  {
    "name": "Sammy's Berliner Donuts  Sophienstraße",
    "slug": "sammys-berliner-donuts-sophienstrasse",
    "ue_id": "oRL3_3VZXg-0QO0YkHZ_IA",
    "url": "https://www.ubereats.com/de/store/sammys-berliner-donuts-sophienstrasse/oRL3_3VZXg-0QO0YkHZ_IA",
    "lat": 52.5263,
    "lon": 13.3992
  },
  {
    "name": "Guru Indisches Restaurant",
    "slug": "guru-indisches-restaurant",
    "ue_id": "NDC6WSsnQ42n_-pGWeq51w",
    "url": "https://www.ubereats.com/de/store/guru-indisches-restaurant/NDC6WSsnQ42n_-pGWeq51w",
    "lat": 52.4898,
    "lon": 13.4089
  },
  {
    "name": "„الفيصل“ Restaurant & BBQ Al-Faisal",
    "slug": "%D8%A7%D9%84%D9%81%D9%8A%D8%B5%D9%84%E2%80%9C-restaurant-%26-bbq-al-faisal",
    "ue_id": "5eGBsDIvVOm80m3a7GH4Rw",
    "url": "https://www.ubereats.com/de/store/%D8%A7%D9%84%D9%81%D9%8A%D8%B5%D9%84%E2%80%9C-restaurant-%26-bbq-al-faisal/5eGBsDIvVOm80m3a7GH4Rw",
    "lat": 52.4874,
    "lon": 13.4272
  },
  {
    "name": "Khao Hom",
    "slug": "khao-hom",
    "ue_id": "8K9xZZmNS0yk1BZGO3lgqA",
    "url": "https://www.ubereats.com/de/store/khao-hom/8K9xZZmNS0yk1BZGO3lgqA",
    "lat": 52.4701,
    "lon": 13.3335
  },
  {
    "name": "Sando Street Burger🍔🍟Kreuzberg",
    "slug": "sando-street-burgerkreuzberg",
    "ue_id": "v5WgQGP9WLG6ELYHLSdVQg",
    "url": "https://www.ubereats.com/de/store/sando-street-burgerkreuzberg/v5WgQGP9WLG6ELYHLSdVQg",
    "lat": 52.4956,
    "lon": 13.3965
  },
  {
    "name": "Falfool Restaurant",
    "slug": "falfool-restaurant",
    "ue_id": "f4BgoU6vSc-vbbX1k6dXdw",
    "url": "https://www.ubereats.com/de/store/falfool-restaurant/f4BgoU6vSc-vbbX1k6dXdw",
    "lat": 52.484,
    "lon": 13.436
  },
  {
    "name": "Imbiss Oregano",
    "slug": "imbiss-oregano",
    "ue_id": "ZG78vpe-UmWUyO2A1iNECQ",
    "url": "https://www.ubereats.com/de/store/imbiss-oregano/ZG78vpe-UmWUyO2A1iNECQ",
    "lat": 52.5006,
    "lon": 13.4221
  },
  {
    "name": "Örnek Lahmacun & Grillhaus",
    "slug": "ornek-lahmacun-%26-grillhaus",
    "ue_id": "eVwjDEmiR_mHaqLeeNxHtw",
    "url": "https://www.ubereats.com/de/store/ornek-lahmacun-%26-grillhaus/eVwjDEmiR_mHaqLeeNxHtw",
    "lat": 52.4784,
    "lon": 13.4377
  },
  {
    "name": "7 Days Original",
    "slug": "7-days-original",
    "ue_id": "HSA1nIHTXtylK_atCE_eTg",
    "url": "https://www.ubereats.com/de/store/7-days-original/HSA1nIHTXtylK_atCE_eTg",
    "lat": 52.4995,
    "lon": 13.4173
  },
  {
    "name": "Breggs Kreuzberg",
    "slug": "breggs-kreuzberg",
    "ue_id": "swp2eUhMVb6tt8tNy47WHA",
    "url": "https://www.ubereats.com/de/store/breggs-kreuzberg/swp2eUhMVb6tt8tNy47WHA",
    "lat": 52.4953,
    "lon": 13.4193
  },
  {
    "name": "Asia Lee Restaurant",
    "slug": "asia-lee-restaurant",
    "ue_id": "kMGqiPcQVaSobnA1fuKz6A",
    "url": "https://www.ubereats.com/de/store/asia-lee-restaurant/kMGqiPcQVaSobnA1fuKz6A",
    "lat": 52.4749,
    "lon": 13.3281
  },
  {
    "name": "Breggs",
    "slug": "breggs",
    "ue_id": "gC-xmbqNWayFCIIbTG7V8w",
    "url": "https://www.ubereats.com/de/store/breggs/gC-xmbqNWayFCIIbTG7V8w",
    "lat": 52.5237,
    "lon": 13.3994
  },
  {
    "name": "Wunderlampe I Your favorite Chicken Döner I",
    "slug": "wunderlampe-i-your-favorite-chicken-doner-i",
    "ue_id": "gDCU_p_2XQmWGE89_FEFoA",
    "url": "https://www.ubereats.com/de/store/wunderlampe-i-your-favorite-chicken-doner-i/gDCU_p_2XQmWGE89_FEFoA",
    "lat": 52.4953,
    "lon": 13.4303
  },
  {
    "name": "Haci Baba Adalberstrasse ",
    "slug": "haci-baba-adalberstrasse",
    "ue_id": "ywIqWhveU_yHV2_i4FhV-Q",
    "url": "https://www.ubereats.com/de/store/haci-baba-adalberstrasse/ywIqWhveU_yHV2_i4FhV-Q",
    "lat": 52.5016,
    "lon": 13.4196
  },
  {
    "name": "Zaddy's Döner",
    "slug": "zaddys-doner",
    "ue_id": "U4b3LMleXyqGTnZzUtXydw",
    "url": "https://www.ubereats.com/de/store/zaddys-doner/U4b3LMleXyqGTnZzUtXydw",
    "lat": 52.5061,
    "lon": 13.3319
  },
  {
    "name": "Green & Protein",
    "slug": "green-%26-protein",
    "ue_id": "VfvI0QM1QVS3xAdqagVdhg",
    "url": "https://www.ubereats.com/de/store/green-%26-protein/VfvI0QM1QVS3xAdqagVdhg",
    "lat": 52.5252,
    "lon": 13.3884
  },
  {
    "name": "Martins Döner House",
    "slug": "martins-doner-house",
    "ue_id": "4G581WMJWq-Hr0FW54Hgkg",
    "url": "https://www.ubereats.com/de/store/martins-doner-house/4G581WMJWq-Hr0FW54Hgkg",
    "lat": 52.4856,
    "lon": 13.3453
  },
  {
    "name": "THE STEAK DÖNER",
    "slug": "the-steak-doner",
    "ue_id": "n4lk461kX2uK9uWUJu5YuQ",
    "url": "https://www.ubereats.com/de/store/the-steak-doner/n4lk461kX2uK9uWUJu5YuQ",
    "lat": 52.5206,
    "lon": 13.4044
  },
  {
    "name": "TASTY-GEMÜSE Kebab",
    "slug": "tasty-gemuse-kebab",
    "ue_id": "uH0ncHcCVlyleRtceWXaIg",
    "url": "https://www.ubereats.com/de/store/tasty-gemuse-kebab/uH0ncHcCVlyleRtceWXaIg",
    "lat": 52.4685,
    "lon": 13.4907
  },
  {
    "name": "Pasta 44 🇮🇹",
    "slug": "pasta-44",
    "ue_id": "8QcNlMf8UPuobLj0-3VbwQ",
    "url": "https://www.ubereats.com/de/store/pasta-44/8QcNlMf8UPuobLj0-3VbwQ",
    "lat": 52.4853,
    "lon": 13.4346
  },
  {
    "name": "Harby Döner & Burger🍔🌯",
    "slug": "harby-doner-%26-burger",
    "ue_id": "9nC0ATXEUGebTPZ6F546OQ",
    "url": "https://www.ubereats.com/de/store/harby-doner-%26-burger/9nC0ATXEUGebTPZ6F546OQ",
    "lat": 52.4996,
    "lon": 13.3631
  },
  {
    "name": "Hot Bowl 76",
    "slug": "hot-bowl-76",
    "ue_id": "pBHezFjQVI6cUhBZ0cPYeQ",
    "url": "https://www.ubereats.com/de/store/hot-bowl-76/pBHezFjQVI6cUhBZ0cPYeQ",
    "lat": 52.5105,
    "lon": 13.4087
  },
  {
    "name": "Catbird  Italo American Sandwiches",
    "slug": "catbird-italo-american-sandwiches",
    "ue_id": "tFRr4LqpXky-DqvC54yc6Q",
    "url": "https://www.ubereats.com/de/store/catbird-italo-american-sandwiches/tFRr4LqpXky-DqvC54yc6Q",
    "lat": 52.4867,
    "lon": 13.3551
  },
  {
    "name": "Starbucks Friedrichstraße 61",
    "slug": "starbucks-friedrichstrasse-61",
    "ue_id": "G1O4bNFpUzy5cStOeQTuow",
    "url": "https://www.ubereats.com/de/store/starbucks-friedrichstrasse-61/G1O4bNFpUzy5cStOeQTuow",
    "lat": 52.5111,
    "lon": 13.3899
  },
  {
    "name": "City Chicken 2 Breakfast",
    "slug": "city-chicken-2-breakfast",
    "ue_id": "ehopEIrvU2uBYmStEANjjw",
    "url": "https://www.ubereats.com/de/store/city-chicken-2-breakfast/ehopEIrvU2uBYmStEANjjw",
    "lat": 52.4852,
    "lon": 13.4343
  },
  {
    "name": "Quan Che Schöneberg",
    "slug": "quan-che-schoneberg",
    "ue_id": "LOQqIdUVRvOXOH3EiR0DiA",
    "url": "https://www.ubereats.com/de/store/quan-che-schoneberg/LOQqIdUVRvOXOH3EiR0DiA",
    "lat": 52.485,
    "lon": 13.3454
  },
  {
    "name": "LAZZAT Café",
    "slug": "lazzat-cafe",
    "ue_id": "IVssUIUCUt-6wwACuzwusg",
    "url": "https://www.ubereats.com/de/store/lazzat-cafe/IVssUIUCUt-6wwACuzwusg",
    "lat": 52.4989,
    "lon": 13.4001
  },
  {
    "name": "Ciao Ragazzi",
    "slug": "ciao-ragazzi",
    "ue_id": "Ii1hr_HIWnOcH_qDcI9Jkw",
    "url": "https://www.ubereats.com/de/store/ciao-ragazzi/Ii1hr_HIWnOcH_qDcI9Jkw",
    "lat": 52.5168,
    "lon": 13.3887
  },
  {
    "name": "Sironi Focaccia & Slices",
    "slug": "sironi-focaccia-%26-slices-schoneberg",
    "ue_id": "ZhfTcp1_X6-HOSIrLLlVrg",
    "url": "https://www.ubereats.com/de/store/sironi-focaccia-%26-slices-schoneberg/ZhfTcp1_X6-HOSIrLLlVrg",
    "lat": 52.4936,
    "lon": 13.354
  },
  {
    "name": "Chef Burger Kudamm",
    "slug": "chef-burger-kudamm",
    "ue_id": "WQBrYE-9Vr2nbq4MnLut2w",
    "url": "https://www.ubereats.com/de/store/chef-burger-kudamm/WQBrYE-9Vr2nbq4MnLut2w",
    "lat": 52.4995,
    "lon": 13.3017
  },
  {
    "name": "Uppers Coworking",
    "slug": "uppers-coworking",
    "ue_id": "y0kvDr0cS5y3-S1F9IAsGA",
    "url": "https://www.ubereats.com/de/store/uppers-coworking/y0kvDr0cS5y3-S1F9IAsGA",
    "lat": 52.4934,
    "lon": 13.3868
  },
  {
    "name": "The Fresh Seeds",
    "slug": "the-fresh-seeds-mitte",
    "ue_id": "WS6bjFmaRYaUGTP24FiGPw",
    "url": "https://www.ubereats.com/de/store/the-fresh-seeds-mitte/WS6bjFmaRYaUGTP24FiGPw",
    "lat": 52.5285,
    "lon": 13.3765
  },
  {
    "name": "Cappuccino Grand Café 🥗🥐🍳",
    "slug": "cappuccino-grand-cafe",
    "ue_id": "jlJJLILGUiaWinWz71KpKQ",
    "url": "https://www.ubereats.com/de/store/cappuccino-grand-cafe/jlJJLILGUiaWinWz71KpKQ",
    "lat": 52.5265,
    "lon": 13.3937
  },
  {
    "name": "MY GRILL I KEBAB I BURGER",
    "slug": "my-grill-i-kebab-i-burger",
    "ue_id": "MUU7YL_ZWuKmK4K16PFIcQ",
    "url": "https://www.ubereats.com/de/store/my-grill-i-kebab-i-burger/MUU7YL_ZWuKmK4K16PFIcQ",
    "lat": 52.4887,
    "lon": 13.3432
  },
  {
    "name": "La Femme La.Macun und Pide",
    "slug": "la-femme-lamacun-und-pide",
    "ue_id": "NHx5FtKTRAyOz2hEfVKQbA",
    "url": "https://www.ubereats.com/de/store/la-femme-lamacun-und-pide/NHx5FtKTRAyOz2hEfVKQbA",
    "lat": 52.4909,
    "lon": 13.4236
  },
  {
    "name": "Devils Smashburger",
    "slug": "devils-smashburger",
    "ue_id": "AYq_rXzAW2OTn2JsJ4TtHA",
    "url": "https://www.ubereats.com/de/store/devils-smashburger/AYq_rXzAW2OTn2JsJ4TtHA",
    "lat": 52.4852,
    "lon": 13.3548
  },
  {
    "name": "Friendly Fish ",
    "slug": "friendly-fish",
    "ue_id": "SDYV8MMIRg6_OwdxygtHBw",
    "url": "https://www.ubereats.com/de/store/friendly-fish/SDYV8MMIRg6_OwdxygtHBw",
    "lat": 52.5236,
    "lon": 13.4008
  },
  {
    "name": "Samay Restaurent",
    "slug": "samay-restaurent",
    "ue_id": "0-PY0yy-RO2tdFvAbsXSDw",
    "url": "https://www.ubereats.com/de/store/samay-restaurent/0-PY0yy-RO2tdFvAbsXSDw",
    "lat": 52.4942,
    "lon": 13.3381
  },
  {
    "name": "El Buen Gusto",
    "slug": "el-buen-gusto",
    "ue_id": "yCnIhsCbVN-7tDK0xql2ew",
    "url": "https://www.ubereats.com/de/store/el-buen-gusto/yCnIhsCbVN-7tDK0xql2ew",
    "lat": 52.4643,
    "lon": 13.4885
  },
  {
    "name": "Berlin Tantuni ",
    "slug": "berlin-tantuni",
    "ue_id": "hTgr-cknV0aXOTxDKlrdcw",
    "url": "https://www.ubereats.com/de/store/berlin-tantuni/hTgr-cknV0aXOTxDKlrdcw",
    "lat": 52.481,
    "lon": 13.4248
  },
  {
    "name": "Subway Berlin Südkreuz",
    "slug": "subway-berlin-sudkreuz",
    "ue_id": "ejBhKNLMXoe6HYtgkGB5Ig",
    "url": "https://www.ubereats.com/de/store/subway-berlin-sudkreuz/ejBhKNLMXoe6HYtgkGB5Ig",
    "lat": 52.4766,
    "lon": 13.3647
  },
  {
    "name": "Pizzeria Journale",
    "slug": "pizzeria-journale",
    "ue_id": "2q4QZbXuTjWsX_QlkDkH2g",
    "url": "https://www.ubereats.com/de/store/pizzeria-journale/2q4QZbXuTjWsX_QlkDkH2g",
    "lat": 52.507,
    "lon": 13.3974
  },
  {
    "name": "Smashburger Kreuzberg",
    "slug": "smashburger-kreuzberg",
    "ue_id": "J5UgypHeVYGn3dP6W2sqkw",
    "url": "https://www.ubereats.com/de/store/smashburger-kreuzberg/J5UgypHeVYGn3dP6W2sqkw",
    "lat": 52.5039,
    "lon": 13.3871
  },
  {
    "name": "Eat-Aly  INN",
    "slug": "eat-aly-inn",
    "ue_id": "g818Szq-VUC6oSTrzW4v_Q",
    "url": "https://www.ubereats.com/de/store/eat-aly-inn/g818Szq-VUC6oSTrzW4v_Q",
    "lat": 52.5231,
    "lon": 13.4119
  },
  {
    "name": "Keb UP 🥙🍟",
    "slug": "keb-up",
    "ue_id": "taEXzO6zU5u2cbdOF7r4GQ",
    "url": "https://www.ubereats.com/de/store/keb-up/taEXzO6zU5u2cbdOF7r4GQ",
    "lat": 52.4977,
    "lon": 13.3246
  },
  {
    "name": "Pizza & Burger Haus",
    "slug": "pizza-%26-burger-haus",
    "ue_id": "7QUQJblWV-SGNvdCQmOxHg",
    "url": "https://www.ubereats.com/de/store/pizza-%26-burger-haus/7QUQJblWV-SGNvdCQmOxHg",
    "lat": 52.4643,
    "lon": 13.4884
  },
  {
    "name": "Schawafel",
    "slug": "schawafel",
    "ue_id": "s6y7kyBZVlyTOoAb3REMkg",
    "url": "https://www.ubereats.com/de/store/schawafel/s6y7kyBZVlyTOoAb3REMkg",
    "lat": 52.5054,
    "lon": 13.327
  },
  {
    "name": "Enzo’s",
    "slug": "enzos",
    "ue_id": "jJO9_868STiGmiynDCGiTA",
    "url": "https://www.ubereats.com/de/store/enzos/jJO9_868STiGmiynDCGiTA",
    "lat": 52.5047,
    "lon": 13.3418
  },
  {
    "name": "Yasmin Alsham ",
    "slug": "yasmin-alsham",
    "ue_id": "6wH5O1TQS0KnU5LC7QBtFg",
    "url": "https://www.ubereats.com/de/store/yasmin-alsham/6wH5O1TQS0KnU5LC7QBtFg",
    "lat": 52.475,
    "lon": 13.4397
  },
  {
    "name": "Hol! Cow Pakistan Street Food",
    "slug": "hol%21-cow-pakistan-street-food",
    "ue_id": "HsTx1U93Xu6zWTjsRJnWBQ",
    "url": "https://www.ubereats.com/de/store/hol%21-cow-pakistan-street-food/HsTx1U93Xu6zWTjsRJnWBQ",
    "lat": 52.4773,
    "lon": 13.4355
  },
  {
    "name": "Polat Döneria",
    "slug": "polat-doneria",
    "ue_id": "neTgp8jnVn-Sn-ZhmXD8ng",
    "url": "https://www.ubereats.com/de/store/polat-doneria/neTgp8jnVn-Sn-ZhmXD8ng",
    "lat": 52.458,
    "lon": 13.3843
  },
  {
    "name": "Falafelli ",
    "slug": "falafelli",
    "ue_id": "QAvOwIbKThGbWx_fujFRzA",
    "url": "https://www.ubereats.com/de/store/falafelli/QAvOwIbKThGbWx_fujFRzA",
    "lat": 52.5236,
    "lon": 13.4163
  },
  {
    "name": "Nhas City Chicken",
    "slug": "nhas-city-chicken-karl-marx-platz",
    "ue_id": "YVUDy2xXUqu4RW-hQlG0xg",
    "url": "https://www.ubereats.com/de/store/nhas-city-chicken-karl-marx-platz/YVUDy2xXUqu4RW-hQlG0xg",
    "lat": 52.4739,
    "lon": 13.4411
  },
  {
    "name": "Pizza Berlino",
    "slug": "pizza-berlino",
    "ue_id": "AKneT29cRLaUo2wGSIRFfA",
    "url": "https://www.ubereats.com/de/store/pizza-berlino/AKneT29cRLaUo2wGSIRFfA",
    "lat": 52.5087,
    "lon": 13.4046
  },
  {
    "name": "Schnitzery Kreuzberg",
    "slug": "schnitzery-kreuzberg",
    "ue_id": "PCxi6_BwUJCl7YhVbQUWLQ",
    "url": "https://www.ubereats.com/de/store/schnitzery-kreuzberg/PCxi6_BwUJCl7YhVbQUWLQ",
    "lat": 52.4997,
    "lon": 13.4172
  },
  {
    "name": "Saravanaa Bhavan Berlin",
    "slug": "saravanaa-bhavan-berlin",
    "ue_id": "KHRA8FCURBSTvib-k7F0nw",
    "url": "https://www.ubereats.com/de/store/saravanaa-bhavan-berlin/KHRA8FCURBSTvib-k7F0nw",
    "lat": 52.5103,
    "lon": 13.376
  },
  {
    "name": "Flemming‘s",
    "slug": "flemming%E2%80%98s",
    "ue_id": "wtZxeznZSgObhvNe9XBSNw",
    "url": "https://www.ubereats.com/de/store/flemming%E2%80%98s/wtZxeznZSgObhvNe9XBSNw",
    "lat": 52.4906,
    "lon": 13.3873
  },
  {
    "name": "Goldies Smashburger Potsdamer Platz",
    "slug": "goldies-smashburger-potsdamer-platz",
    "ue_id": "viUKgZ8aUf2YMWpIv1LVXA",
    "url": "https://www.ubereats.com/de/store/goldies-smashburger-potsdamer-platz/viUKgZ8aUf2YMWpIv1LVXA",
    "lat": 52.5091,
    "lon": 13.3743
  },
  {
    "name": "MA’LOA Poké Bowl Berlin Oberwallstraße",
    "slug": "maloa-poke-bowl-berlin-oberwallstrasse",
    "ue_id": "P8bJ1tIyVCi8xNqbgYYYig",
    "url": "https://www.ubereats.com/de/store/maloa-poke-bowl-berlin-oberwallstrasse/P8bJ1tIyVCi8xNqbgYYYig",
    "lat": 52.5134,
    "lon": 13.3973
  },
  {
    "name": "Overslize Pizza Mitte",
    "slug": "overslize-pizza-mitte",
    "ue_id": "r-V9ZV8AX32tZMeYjIjPuQ",
    "url": "https://www.ubereats.com/de/store/overslize-pizza-mitte/r-V9ZV8AX32tZMeYjIjPuQ",
    "lat": 52.5115,
    "lon": 13.4169
  },
  {
    "name": "BRGRS- Bio Beef Burger Mitte",
    "slug": "brgrs-bio-beef-burger-mitte",
    "ue_id": "06AII47lRf-1MsPiu0Cyzg",
    "url": "https://www.ubereats.com/de/store/brgrs-bio-beef-burger-mitte/06AII47lRf-1MsPiu0Cyzg",
    "lat": 52.5115,
    "lon": 13.4169
  },
  {
    "name": "Nordsee Spandauer Straße",
    "slug": "nordsee-spandauer-strasse",
    "ue_id": "7IIHvegCTuCaHgd2DC9yeA",
    "url": "https://www.ubereats.com/de/store/nordsee-spandauer-strasse/7IIHvegCTuCaHgd2DC9yeA",
    "lat": 52.5204,
    "lon": 13.405
  },
  {
    "name": "Nhas City Chicken",
    "slug": "nhas-city-chicken-rosenthaler-platz",
    "ue_id": "nmYCZtttWuyZbmVXQrLPOg",
    "url": "https://www.ubereats.com/de/store/nhas-city-chicken-rosenthaler-platz/nmYCZtttWuyZbmVXQrLPOg",
    "lat": 52.5298,
    "lon": 13.4008
  },
  {
    "name": "The Mood Burger",
    "slug": "the-mood-burger-hauptbahnhof",
    "ue_id": "0ehkJc90WL2qvwlosnEqwQ",
    "url": "https://www.ubereats.com/de/store/the-mood-burger-hauptbahnhof/0ehkJc90WL2qvwlosnEqwQ",
    "lat": 52.5334,
    "lon": 13.3662
  },
  {
    "name": "Al Khawali",
    "slug": "al-khawali",
    "ue_id": "efDCwN4xW7ys47aQylWMAg",
    "url": "https://www.ubereats.com/de/store/al-khawali/efDCwN4xW7ys47aQylWMAg",
    "lat": 52.4899,
    "lon": 13.3594
  },
  {
    "name": "Smash City Prenzlauer Berg",
    "slug": "smash-city-prenzlauer-berg",
    "ue_id": "T2fZ-AfIW7CoN4ZXUASfQg",
    "url": "https://www.ubereats.com/de/store/smash-city-prenzlauer-berg/T2fZ-AfIW7CoN4ZXUASfQg",
    "lat": 52.5535,
    "lon": 13.4129
  },
  {
    "name": "beets&roots Ostbahnhof",
    "slug": "beets%26roots-ostbahnhof",
    "ue_id": "ecgVOBKxW_ugU8_VAVBKiA",
    "url": "https://www.ubereats.com/de/store/beets%26roots-ostbahnhof/ecgVOBKxW_ugU8_VAVBKiA",
    "lat": 52.5097,
    "lon": 13.4344
  },
  {
    "name": "HeimWerk Hackescher Markt",
    "slug": "heimwerk-hackescher-markt",
    "ue_id": "WWyZOTHRUP-9SCnGENvStQ",
    "url": "https://www.ubereats.com/de/store/heimwerk-hackescher-markt/WWyZOTHRUP-9SCnGENvStQ",
    "lat": 52.5229,
    "lon": 13.4014
  },
  {
    "name": "Adam‘s Pizza & Pasta 2",
    "slug": "adam%E2%80%98s-pizza-%26-pasta-2",
    "ue_id": "IGCBO7HkU-arZFdixiWatA",
    "url": "https://www.ubereats.com/de/store/adam%E2%80%98s-pizza-%26-pasta-2/IGCBO7HkU-arZFdixiWatA",
    "lat": 52.4823,
    "lon": 13.3486
  },
  {
    "name": "Solé Bagel",
    "slug": "sole-bagel",
    "ue_id": "jQOd_PXXSYayI9bQhlR_ag",
    "url": "https://www.ubereats.com/de/store/sole-bagel/jQOd_PXXSYayI9bQhlR_ag",
    "lat": 52.5007,
    "lon": 13.4448
  },
  {
    "name": "ZUMA COFFEE",
    "slug": "zuma-coffee",
    "ue_id": "_atnwdw3VyuQqhXU-WJV4w",
    "url": "https://www.ubereats.com/de/store/zuma-coffee/_atnwdw3VyuQqhXU-WJV4w",
    "lat": 52.5014,
    "lon": 13.3308
  },
  {
    "name": "Kflowers ",
    "slug": "kflowers",
    "ue_id": "03SA5r0eV_a9-_3aBZ4WTw",
    "url": "https://www.ubereats.com/de/store/kflowers/03SA5r0eV_a9-_3aBZ4WTw",
    "lat": 52.5496,
    "lon": 13.425
  },
  {
    "name": "Aldimashqi الدمشقي Restaurant ",
    "slug": "aldimashqi-%D8%A7%D9%84%D8%AF%D9%85%D8%B4%D9%82%D9%8A-restaurant",
    "ue_id": "8OuAUqC4QySgKEZRjRy50w",
    "url": "https://www.ubereats.com/de/store/aldimashqi-%D8%A7%D9%84%D8%AF%D9%85%D8%B4%D9%82%D9%8A-restaurant/8OuAUqC4QySgKEZRjRy50w",
    "lat": 52.487,
    "lon": 13.4292
  },
  {
    "name": "Burger King Tempelhofer Damm",
    "slug": "burger-king-tempelhofer-damm",
    "ue_id": "Rc-m_AquQuiBm4fQlINaNg",
    "url": "https://www.ubereats.com/de/store/burger-king-tempelhofer-damm/Rc-m_AquQuiBm4fQlINaNg",
    "lat": 52.4804,
    "lon": 13.3853
  },
  {
    "name": "Punjab Haus Indisches Restaurant",
    "slug": "punjab-haus-indisches-restaurant",
    "ue_id": "9yv1Qe2LWhuvXyxttnkFcw",
    "url": "https://www.ubereats.com/de/store/punjab-haus-indisches-restaurant/9yv1Qe2LWhuvXyxttnkFcw",
    "lat": 52.4859,
    "lon": 13.3384
  },
  {
    "name": "Smack Burger",
    "slug": "smack-burger-neukolln",
    "ue_id": "FZJGG6i4W-yK44faU1XwIw",
    "url": "https://www.ubereats.com/de/store/smack-burger-neukolln/FZJGG6i4W-yK44faU1XwIw",
    "lat": 52.4868,
    "lon": 13.425
  },
  {
    "name": "ORIENT ECK DAS ORIGINAL",
    "slug": "orient-eck-das-original",
    "ue_id": "eTfiIhNZV8amtyBFjqprxA",
    "url": "https://www.ubereats.com/de/store/orient-eck-das-original/eTfiIhNZV8amtyBFjqprxA",
    "lat": 52.4996,
    "lon": 13.4172
  },
  {
    "name": "Big Selo Burger ",
    "slug": "big-selo-burger",
    "ue_id": "9hiFGw-QV--sauF4DZXVjA",
    "url": "https://www.ubereats.com/de/store/big-selo-burger/9hiFGw-QV--sauF4DZXVjA",
    "lat": 52.4892,
    "lon": 13.4247
  },
  {
    "name": "Pizza & Burger Bulls  Schöneberg",
    "slug": "pizza-%26-burger-bulls-schoneberg",
    "ue_id": "HICDHyE_W0u888-hldgSWQ",
    "url": "https://www.ubereats.com/de/store/pizza-%26-burger-bulls-schoneberg/HICDHyE_W0u888-hldgSWQ",
    "lat": 52.4943,
    "lon": 13.3379
  },
  {
    "name": "Trafooo19 Kumpir & Backkartoffel",
    "slug": "trafooo19-kumpir-%26-backkartoffel",
    "ue_id": "WM0uzugvTRy3ILJyY9eFhQ",
    "url": "https://www.ubereats.com/de/store/trafooo19-kumpir-%26-backkartoffel/WM0uzugvTRy3ILJyY9eFhQ",
    "lat": 52.4828,
    "lon": 13.4343
  },
  {
    "name": "Splash",
    "slug": "splash",
    "ue_id": "s2uG2b6KVxCwzuTd4Inebg",
    "url": "https://www.ubereats.com/de/store/splash/s2uG2b6KVxCwzuTd4Inebg",
    "lat": 52.4811,
    "lon": 13.3476
  },
  {
    "name": "Germania Shop",
    "slug": "germania-shop",
    "ue_id": "njqfdlnoUea5_lL8b-azpA",
    "url": "https://www.ubereats.com/de/store/germania-shop/njqfdlnoUea5_lL8b-azpA",
    "lat": 52.4604,
    "lon": 13.4303
  },
  {
    "name": "Yoko Sushi Mitte",
    "slug": "yoko-sushi-mitte",
    "ue_id": "mmD09V40XFywIlXRwP9IzQ",
    "url": "https://www.ubereats.com/de/store/yoko-sushi-mitte/mmD09V40XFywIlXRwP9IzQ",
    "lat": 52.5041,
    "lon": 13.3875
  },
  {
    "name": "Foodish Bowl´s, Breakfast & Smoothies",
    "slug": "foodish-bowl-s-breakfast-%26-smoothies",
    "ue_id": "UxoAuYhXUHi_ncWzSUc8-w",
    "url": "https://www.ubereats.com/de/store/foodish-bowl-s-breakfast-%26-smoothies/UxoAuYhXUHi_ncWzSUc8-w",
    "lat": 52.5075,
    "lon": 13.3883
  },
  {
    "name": "La Fiamma",
    "slug": "la-fiamma-kreuzberg",
    "ue_id": "5zDmwsTIVi2ZJUf_W31Yuw",
    "url": "https://www.ubereats.com/de/store/la-fiamma-kreuzberg/5zDmwsTIVi2ZJUf_W31Yuw",
    "lat": 52.4925,
    "lon": 13.4222
  },
  {
    "name": "Cinnamood Berlin Ku'Damm",
    "slug": "cinnamood-berlin-kudamm",
    "ue_id": "vLmvlt_XU8G5DOOc2meDwg",
    "url": "https://www.ubereats.com/de/store/cinnamood-berlin-kudamm/vLmvlt_XU8G5DOOc2meDwg",
    "lat": 52.504,
    "lon": 13.3306
  },
  {
    "name": "STARI MOST",
    "slug": "stari-most",
    "ue_id": "G_rzet-gWkeigeoB8FevJQ",
    "url": "https://www.ubereats.com/de/store/stari-most/G_rzet-gWkeigeoB8FevJQ",
    "lat": 52.4998,
    "lon": 13.4174
  },
  {
    "name": "Pho 87",
    "slug": "pho-87",
    "ue_id": "jyxdzMxDVjiBmWvBQbwzUg",
    "url": "https://www.ubereats.com/de/store/pho-87/jyxdzMxDVjiBmWvBQbwzUg",
    "lat": 52.4887,
    "lon": 13.4235
  },
  {
    "name": "The Mood Burger",
    "slug": "the-mood-burger-steglitz",
    "ue_id": "HPoD8_BEWcKS2Ts8HDPr2A",
    "url": "https://www.ubereats.com/de/store/the-mood-burger-steglitz/HPoD8_BEWcKS2Ts8HDPr2A",
    "lat": 52.4716,
    "lon": 13.3357
  },
  {
    "name": "Restaurant Mardin Berlin",
    "slug": "restaurant-mardin-berlin",
    "ue_id": "StZ4Ok9pXw-Si_pO_zoqGg",
    "url": "https://www.ubereats.com/de/store/restaurant-mardin-berlin/StZ4Ok9pXw-Si_pO_zoqGg",
    "lat": 52.4884,
    "lon": 13.4247
  },
  {
    "name": "Pizza Hut Mall of Berlin",
    "slug": "pizza-hut-mall-of-berlin",
    "ue_id": "UZ85zO-BUkKdn_JM0azBTA",
    "url": "https://www.ubereats.com/de/store/pizza-hut-mall-of-berlin/UZ85zO-BUkKdn_JM0azBTA",
    "lat": 52.5101,
    "lon": 13.3799
  },
  {
    "name": "Fadi Food Berlin",
    "slug": "fadi-food-berlin",
    "ue_id": "zKCjPSggSViVGtLA8rxa_g",
    "url": "https://www.ubereats.com/de/store/fadi-food-berlin/zKCjPSggSViVGtLA8rxa_g",
    "lat": 52.4987,
    "lon": 13.3627
  },
  {
    "name": "Hasir Wilmersdorf",
    "slug": "hasir-wilmersdorf",
    "ue_id": "ae0_L57aXEyubj-X3v9fbA",
    "url": "https://www.ubereats.com/de/store/hasir-wilmersdorf/ae0_L57aXEyubj-X3v9fbA",
    "lat": 52.5006,
    "lon": 13.3369
  },
  {
    "name": "Veggie & Vega I Finest Indian Food I",
    "slug": "veggie-%26-vega-i-finest-indian-food-i",
    "ue_id": "VQOE_G9tWnWJ4c9_SPWRTA",
    "url": "https://www.ubereats.com/de/store/veggie-%26-vega-i-finest-indian-food-i/VQOE_G9tWnWJ4c9_SPWRTA",
    "lat": 52.4923,
    "lon": 13.3891
  },
  {
    "name": "Fourty Years Kitchen Anatolian Food",
    "slug": "fourty-years-kitchen-anatolian-food",
    "ue_id": "wz_JpeBzVWy-DJXVDpApfA",
    "url": "https://www.ubereats.com/de/store/fourty-years-kitchen-anatolian-food/wz_JpeBzVWy-DJXVDpApfA",
    "lat": 52.4922,
    "lon": 13.4182
  },
  {
    "name": "Burgers Berlin",
    "slug": "burgers-berlin-goltzstr",
    "ue_id": "F1MMSmqJV2KKZDgvx2AHLg",
    "url": "https://www.ubereats.com/de/store/burgers-berlin-goltzstr/F1MMSmqJV2KKZDgvx2AHLg",
    "lat": 52.4943,
    "lon": 13.3537
  },
  {
    "name": "Minimarkt Kreuzberg",
    "slug": "minimarkt-kreuzberg",
    "ue_id": "BjFmxgrvXduAEfqCto8rPg",
    "url": "https://www.ubereats.com/de/store/minimarkt-kreuzberg/BjFmxgrvXduAEfqCto8rPg",
    "lat": 52.4996,
    "lon": 13.4432
  },
  {
    "name": "Fourty Years Coffee",
    "slug": "fourty-years-coffee",
    "ue_id": "MSqPcx52WFG2Vdpi0RQnZg",
    "url": "https://www.ubereats.com/de/store/fourty-years-coffee/MSqPcx52WFG2Vdpi0RQnZg",
    "lat": 52.4958,
    "lon": 13.4274
  },
  {
    "name": "OOH! Cookies",
    "slug": "ooh%21-cookies",
    "ue_id": "zPpKIb9oQPiqV5cEgqb6Bw",
    "url": "https://www.ubereats.com/de/store/ooh%21-cookies/zPpKIb9oQPiqV5cEgqb6Bw",
    "lat": 52.5189,
    "lon": 13.3888
  },
  {
    "name": "Pizzeria Di Napoli 2",
    "slug": "pizzeria-di-napoli-2",
    "ue_id": "UlKQ-Vi1VV22qG5MLDorFw",
    "url": "https://www.ubereats.com/de/store/pizzeria-di-napoli-2/UlKQ-Vi1VV22qG5MLDorFw",
    "lat": 52.4821,
    "lon": 13.349
  },
  {
    "name": "ZenZei Sushi ",
    "slug": "zenzei-sushi",
    "ue_id": "u_FGc_OaUBOPlEkDJsmQIQ",
    "url": "https://www.ubereats.com/de/store/zenzei-sushi/u_FGc_OaUBOPlEkDJsmQIQ",
    "lat": 52.5026,
    "lon": 13.3562
  },
  {
    "name": "Tele Pizza Berlin Schöneberg",
    "slug": "tele-pizza-berlin-schoneberg",
    "ue_id": "nBlxW59AWrSFTbzoAaSYtQ",
    "url": "https://www.ubereats.com/de/store/tele-pizza-berlin-schoneberg/nBlxW59AWrSFTbzoAaSYtQ",
    "lat": 52.5026,
    "lon": 13.346
  },
  {
    "name": "YOGI INDISCHER LIEFERSERVICE",
    "slug": "yogi-indischer-lieferservice",
    "ue_id": "KE-NbqZVXwysR179sjjfEQ",
    "url": "https://www.ubereats.com/de/store/yogi-indischer-lieferservice/KE-NbqZVXwysR179sjjfEQ",
    "lat": 52.4342,
    "lon": 13.3581
  }
]